{"type":"FeatureCollection","features":[{"type":"Feature","properties":{"FID":0,"OBJECTID":1,"Name":"Aster Assisted Living","Address_On":"139 E Reynolds St, Cottage Grove, WI, 53527","Phone":"608-839-8085","URL":"asterassistedliving.com/cottage-grove.html","Symbol":14,"HazMtrls":"No","Street":"139 E Reynolds St","City":"Cottage Grove","Zipcode":53527,"Category":"Assisted Living"},"geometry":{"type":"Point","coordinates":[-89.196045,43.074615]}},{"type":"Feature","properties":{"FID":1,"OBJECTID":2,"Name":"Outpost Bar and Grill","Address_On":"227 S Main St, Cottage Grove, WI 53527","Phone":"608-839-5205","URL":"www.facebook.com/Outpost-Bar-Grill-116126901742940/","Symbol":18,"HazMtrls":"No","Street":"227 S Main St","City":"Cottage Grove","Zipcode":53527,"Category":"Bar & Restaurant"},"geometry":{"type":"Point","coordinates":[-89.199929,43.075614]}},{"type":"Feature","properties":{"FID":2,"OBJECTID":3,"Name":"1855 Saloon and Grill","Address_On":"218 S Main St, #100, Cottage Grove, WI, 53527","Phone":"608-839-3700","URL":"www.1855saloonandgrill.com","Symbol":18,"HazMtrls":"No","Street":"218 S Main St, #100","City":"Cottage Grove","Zipcode":53527,"Category":"Bar & Restaurant"},"geometry":{"type":"Point","coordinates":[-89.199495,43.075587]}},{"type":"Feature","properties":{"marker-color":"#7e7e7e","marker-size":"medium","marker-symbol":"","FID":3,"OBJECTID":4,"Name":"Hydrite Chemical","Address_On":"114 N Main St, Cottage Grove, WI  53527","Phone":"608-839-4571","URL":"hydrite.com","Symbol":22,"HazMtrls":"Yes","Street":"114 N Main St","City":"Cottage Grove","Zipcode":53527,"Category":"Chemical Production"},"geometry":{"type":"Point","coordinates":[-89.198948,43.077422]}},{"type":"Feature","properties":{"FID":4,"OBJECTID":5,"Name":"Cottage Grove Police Department","Address_On":"210 Progress Drive, Cottage Grove, WI  53527","Phone":"608-839-4652","URL":"cottagegrovepolice.org","Symbol":6,"HazMtrls":"No","Street":"210 Progress Drive","City":"Cottage Grove","Zipcode":53527,"Category":"Police Department"},"geometry":{"type":"Point","coordinates":[-89.203051,43.078222]}},{"type":"Feature","properties":{"FID":5,"OBJECTID":6,"Name":"Bryn Mawr Presbyterian Church","Address_On":"229 N Main St, Cottage Grove, WI  53527","Phone":"608-839-4768","URL":"bryn-mawr-presbyterian-church.org","Symbol":1,"HazMtrls":"No","Street":"229 N Main St","City":"Cottage Grove","Zipcode":53527,"Category":"Church"},"geometry":{"type":"Point","coordinates":[-89.200948,43.079295]}},{"type":"Feature","properties":{"marker-color":"#7e7e7e","marker-size":"medium","marker-symbol":"","FID":6,"OBJECTID":7,"Name":"Northern Battery","Address_On":"235 Bonnie Rd, Cottage Grove, WI  53527","Phone":"608-839-5245","URL":"northernbattery.com","Symbol":20,"HazMtrls":"Yes","Street":"235 Bonnie Rd","City":"Cottage Grove","Zipcode":53527,"Category":"Batteries"},"geometry":{"type":"Point","coordinates":[-89.206077,43.078637]}},{"type":"Feature","properties":{"FID":7,"OBJECTID":8,"Name":"Creative Kids Nursery & Daycare","Address_On":"400 Progress Drive, Cottage Grove, WI  53527","Phone":"608-839-0297","URL":"creativekidsnurseryanddaycare.com","Symbol":4,"HazMtrls":"No","Street":"400 Progress Dr","City":"Cottage Grove","Zipcode":53527,"Category":"Daycare"},"geometry":{"type":"Point","coordinates":[-89.209371,43.07685]}},{"type":"Feature","properties":{"FID":8,"OBJECTID":9,"Name":"Cottage Grove Fire Department","Address_On":"4030 Co Hwy N, Cottage Grove, WI 53527","Phone":"608-839-4343","URL":"tn.cottagegrove.wi.gov","Symbol":5,"HazMtrls":"No","Street":"4030 Co Hwy N","City":"Cottage Grove","Zipcode":53527,"Category":"Fire Department"},"geometry":{"type":"Point","coordinates":[-89.199135,43.069201]}},{"type":"Feature","properties":{"FID":9,"OBJECTID":12,"Name":"St. Patrick Church","Address_On":"434 N Main St, Cottage Grove, WI  53527","Phone":"608-839-3969","URL":"st-patrick-parish.com","Symbol":1,"HazMtrls":"No","Street":"434 N Main St","City":"Cottage Grove","Zipcode":53527,"Category":"Church"},"geometry":{"type":"Point","coordinates":[-89.199103,43.083386]}},{"type":"Feature","properties":{"marker-color":"#7e7e7e","marker-size":"medium","marker-symbol":"","FID":10,"OBJECTID":13,"Name":"Cottage Grove Elementary School","Address_On":"470 N Main St, Cottage Grove, WI  53527","Phone":"608-839-4576","URL":"mononagrove.org","Symbol":3,"HazMtrls":"No","Street":"470 N Main St","City":"Cottage Grove","Zipcode":53527,"Category":"School"},"geometry":{"type":"Point","coordinates":[-89.198921,43.084115]}},{"type":"Feature","properties":{"FID":11,"OBJECTID":14,"Name":"Kozy Kids Koral","Address_On":"459 N Main St, Cottage Grove, WI  53527","Phone":"608-839-3814","URL":"kozykidskoral.com","Symbol":4,"HazMtrls":"No","Street":"459 N Main St","City":"Cottage Grove","Zipcode":53527,"Category":"Daycare"},"geometry":{"type":"Point","coordinates":[-89.200165,43.083966]}},{"type":"Feature","properties":{"FID":12,"OBJECTID":15,"Name":"Wisconsin Bank & Trust","Address_On":"580 N Main St, Cottage Grove, WI  53527","Phone":"608-839-5171","URL":"wisconsinbankandtrust.com","Symbol":2,"HazMtrls":"No","Street":"580 N Main St","City":"Cottage Grove","Zipcode":53527,"Category":"Bank"},"geometry":{"type":"Point","coordinates":[-89.198867,43.086771]}},{"type":"Feature","properties":{"FID":13,"OBJECTID":16,"Name":"Cenex Gas","Address_On":"207 W Cottage Grove Rd, Cottage Grove, WI 53527","Phone":"608-819-3128","URL":"cenex.com","Symbol":9,"HazMtrls":"Yes","Street":"207 W Cottage Grove Rd","City":"Cottage Grove","Zipcode":53527,"Category":"Gas, Convenience"},"geometry":{"type":"Point","coordinates":[-89.201195,43.087233]}},{"type":"Feature","properties":{"FID":14,"OBJECTID":17,"Name":"Learning Ladder","Address_On":"312 W Cottage Grove Rd, Cottage Grove, WI  53527","Phone":"608-839-5437","URL":"learningladder.com","Symbol":4,"HazMtrls":"No","Street":"312 W Cottage Grove Rd","City":"Cottage Grove","Zipcode":53527,"Category":"Daycare"},"geometry":{"type":"Point","coordinates":[-89.205959,43.086105]}},{"type":"Feature","properties":{"FID":15,"OBJECTID":18,"Name":"Kindred Hearts","Address_On":"325 Cottage Grove Rd, WI 53527","Phone":"608-839-1555","URL":"www.khearts.com/locations/cottage_grove.php","Symbol":14,"HazMtrls":"No","Street":"325 Cottage Grove Rd","City":"Cottage Grove","Zipcode":53527,"Category":"Assisted Living"},"geometry":{"type":"Point","coordinates":[-89.206549,43.086918]}},{"type":"Feature","properties":{"FID":16,"OBJECTID":19,"Name":"Cottage Grove Village Hall","Address_On":"221 E Cottage Grove Rd,  Cottage Grove, WI  53527","Phone":"608-839-4704","URL":"village.cottage-grove.wi.us","Symbol":15,"HazMtrls":"No","Street":"221 E Cottage Grove Rd","City":"Cottage Grove","Zipcode":53527,"Category":"Government"},"geometry":{"type":"Point","coordinates":[-89.196367,43.089294]}},{"type":"Feature","properties":{"FID":17,"OBJECTID":20,"Name":"Wisconsin Power & Light Substation","Address_On":"4080 Co Hwy N, Cottage Grove, WI  53527","Phone":"800-255-4268","URL":"alliantenergy.com","Symbol":16,"HazMtrls":"No","Street":"4080 Co Hwy N","City":"Cottage Grove","Zipcode":53527,"Category":"Utilities"},"geometry":{"type":"Point","coordinates":[-89.199141,43.072105]}},{"type":"Feature","properties":{"FID":18,"OBJECTID":21,"Name":"Taylor Prairie Elementary School","Address_On":"900 N Parkview St, Cottage Grove, WI  53527","Phone":"608-839-8515","URL":"mononagrove.org","Symbol":3,"HazMtrls":"No","Street":"900 N Parkview St","City":"Cottage Grove","Zipcode":53527,"Category":"School"},"geometry":{"type":"Point","coordinates":[-89.205766,43.097332]}},{"type":"Feature","properties":{"FID":19,"OBJECTID":22,"Name":"BP Gas","Address_On":"1100 N Windsor Ave, Cottage Grove, WI  53527","Phone":"608-839-3154","URL":"bp.com","Symbol":9,"HazMtrls":"Yes","Street":"1100 N Windsor Ave","City":"Cottage Grove","Zipcode":53527,"Category":"Gas, Convenience"},"geometry":{"type":"Point","coordinates":[-89.200122,43.099745]}},{"type":"Feature","properties":{"FID":20,"OBJECTID":23,"Name":"Kids Safari Learning Center","Address_On":"207 Commerce Pkwy, Cottage Grove, WI  53527","Phone":"608-839-9095","URL":"kids-safari.com","Symbol":4,"HazMtrls":"No","Street":"207 Commerce Pkwy","City":"Cottage Grove","Zipcode":53527,"Category":"Daycare"},"geometry":{"type":"Point","coordinates":[-89.194586,43.104336]}},{"type":"Feature","properties":{"FID":21,"OBJECTID":24,"Name":"Princeton Club Xpress","Address_On":"1609 Landmark Dr, Cottage Grove, WI  53527","Phone":"608-839-6300","URL":"www.princetonclub.net/fitness-center-locations/princeton-club-express-cottage-grove/","Symbol":12,"HazMtrls":"No","Street":"1609 Landmark Dr","City":"Cottage Grove","Zipcode":53527,"Category":"Exercise"},"geometry":{"type":"Point","coordinates":[-89.19832,43.107061]}},{"type":"Feature","properties":{"FID":22,"OBJECTID":25,"Name":"Kwik Trip Gas","Address_On":"1601 Landmark Dr, Cottage Grove, WI 53527","Phone":"608-839-4167","URL":"kwiktrip.com","Symbol":9,"HazMtrls":"Yes","Street":"1601 Landmark Dr","City":"Cottage Grove","Zipcode":53527,"Category":"Gas, Convenience"},"geometry":{"type":"Point","coordinates":[-89.197869,43.105741]}},{"type":"Feature","properties":{"FID":23,"OBJECTID":26,"Name":"Blackhawk Airfield","Address_On":"4677 Kennedy Rd, Cottage Grove, WI 53527","Phone":"608-274-2643","URL":"www.airnav.com/airport/87Y","Symbol":7,"HazMtrls":"Yes","Street":"4677 Kennedy Rd","City":"Cottage Grove","Zipcode":53527,"Category":"Airport"},"geometry":{"type":"Point","coordinates":[-89.186239,43.104577]}},{"type":"Feature","properties":{"marker-color":"#7e7e7e","marker-size":"medium","marker-symbol":"","FID":24,"OBJECTID":27,"Name":"Glacial Drumlin Bike Trail","Address_On":"199 S Main St, Cottage Grove, WI  53527","Phone":"920-648-8744","URL":"www.glacialdrumlin.com","Symbol":21,"HazMtrls":"No","Street":"199 S Main St","City":"Cottage Grove","Zipcode":53527,"Category":"Recreation, Biking, Hiking"},"geometry":{"type":"Point","coordinates":[-89.198711,43.076141]}},{"type":"Feature","properties":{"FID":25,"OBJECTID":28,"Name":"BP Gas","Address_On":"4711 Co Rd TT, Sun Prairie, WI 53590","Phone":"608-834-8597","URL":"bp.com","Symbol":9,"HazMtrls":"Yes","Street":"4711 Co Rd TT","City":"Sun Prairie","Zipcode":53590,"Category":"Gas, Convenience"},"geometry":{"type":"Point","coordinates":[-89.200273,43.111157]}},{"type":"Feature","properties":{"marker-color":"#7e7e7e","marker-size":"medium","marker-symbol":"","FID":26,"OBJECTID":29,"Name":"Oaks Golf Course","Address_On":"4740 Pierceville Rd, Cottage Grove, WI 53527","Phone":"608-837-4774","URL":"golftheoaks.com","Symbol":19,"HazMtrls":"No","Street":"4740 Pierceville Rd","City":"Cottage Grove","Zipcode":53527,"Category":"Golfing"},"geometry":{"type":"Point","coordinates":[-89.182034,43.113945]}},{"type":"Feature","properties":{"FID":27,"OBJECTID":30,"Name":"Wisconsin Rugby Club","Address_On":"4064 Vilas Rd, Cottage Grove, WI  53527","Phone":"608-692-8009","URL":"wisconsinrugbyclub.com","Symbol":12,"HazMtrls":"No","Street":"4064 Vilas Rd","City":"Cottage Grove","Zipcode":53527,"Category":"Recreation, Rugby"},"geometry":{"type":"Point","coordinates":[-89.208341,43.074499]}},{"type":"Feature","properties":{"FID":28,"OBJECTID":31,"Name":"McCarthy County Park","Address_On":"4841 Co Hwy TT, Cottage Grove, WI 53527","Phone":"608-224-3730","URL":"countyofdane.com","Symbol":17,"HazMtrls":"No","Street":"4841 Co Hwy TT","City":"Cottage Grove","Zipcode":53527,"Category":"Park"},"geometry":{"type":"Point","coordinates":[-89.189243,43.111815]}},{"type":"Feature","properties":{"marker-color":"#7e7e7e","marker-size":"medium","marker-symbol":"","FID":29,"OBJECTID":32,"Name":"Glacial Drumlin Middle School","Address_On":"801 Damascus Trail, Cottage Grove, WI  53527","Phone":"608-839-8437","URL":"mononagrove.org","Symbol":3,"HazMtrls":"No","Street":"801 Damascus Trail","City":"Cottage Grove","Zipcode":53527,"Category":"School"},"geometry":{"type":"Point","coordinates":[-89.222546,43.091018]}},{"type":"Feature","properties":{"FID":30,"OBJECTID":33,"Name":"Piggly Wiggly","Address_On":"421 W Cottage Grove Rd, Cottage Grove, WI 53527","Phone":"608-839-3350","URL":"shopthepig.com","Symbol":8,"HazMtrls":"No","Street":"421 W Cottage Grove Rd","City":"Cottage Grove","Zipcode":53527,"Category":"Grocery"},"geometry":{"type":"Point","coordinates":[-89.21113,43.088134]}},{"type":"Feature","properties":{"FID":31,"OBJECTID":34,"Name":"CVS Pharmacy","Address_On":"605 W Cottage Grove Rd, Cottage Grove, WI 53527","Phone":"608-839-3704","URL":"cvs.com","Symbol":10,"HazMtrls":"No","Street":"605 W Cottage Grove Rd","City":"Cottage Grove","Zipcode":53527,"Category":"Pharmacy"},"geometry":{"type":"Point","coordinates":[-89.219413,43.089639]}},{"type":"Feature","properties":{"FID":32,"OBJECTID":35,"Name":"BP Gas","Address_On":"401 Co Rd BB, Cottage Grove, WI  53527","Phone":"608-839-1348","URL":"bp.com","Symbol":9,"HazMtrls":"Yes","Street":"401 Co Rd BB","City":"Cottage Grove","Zipcode":53527,"Category":"Gas, Convenience"},"geometry":{"type":"Point","coordinates":[-89.209253,43.086975]}},{"type":"Feature","properties":{"FID":33,"OBJECTID":36,"Name":"Bank of Sun Prairie","Address_On":"419 W Cottage Grove Rd, Cottage Grove, WI 53527","Phone":"608-839-3977","URL":"bankofsunprairie.com","Symbol":2,"HazMtrls":"No","Street":"419 W Cottage Grove Rd","City":"Cottage Grove","Zipcode":53527,"Category":"Bank"},"geometry":{"type":"Point","coordinates":[-89.210755,43.087241]}},{"type":"Feature","properties":{"FID":34,"OBJECTID":37,"Name":"Abiding Shepherd Evangelical Church","Address_On":"406 W Cottage Grove Rd, Cottage Grove, WI 53527","Phone":"608-839-3770","URL":"abidingshepherd.org","Symbol":1,"HazMtrls":"No","Street":"406 W Cottage Grove Rd","City":"Cottage Grove","Zipcode":53527,"Category":"Church"},"geometry":{"type":"Point","coordinates":[-89.210873,43.086198]}},{"type":"Feature","properties":{"FID":35,"OBJECTID":39,"Name":"Cenex","Address_On":"2581 Coffeytown Rd, Cottage Grove, WI, 53527","Phone":"608-839-5363","URL":"cenex.com","Symbol":9,"HazMtrls":"Yes","Street":"2581 Coffeytown Rd","City":"Cottage Grove","Zipcode":53527,"Category":"Gas"},"geometry":{"type":"Point","coordinates":[-89.203352,43.065304]}},{"type":"Feature","properties":{"FID":36,"OBJECTID":40,"Name":"UW Health Clinic","Address_On":"4590 Co Hwy N, Cottage Grove, WI 53527","Phone":"608-839-3104","URL":"www.uwhealth.org/locations/detail.jsp?locationId=42","Symbol":11,"HazMtrls":"No","Street":"4590 Co Hwy N","City":"Cottage Grove","Zipcode":53527,"Category":"Healthcare"},"geometry":{"type":"Point","coordinates":[-89.19869,43.099821]}},{"type":"Feature","properties":{"FID":37,"OBJECTID":41,"Name":"Town of Cottage Grove Police Department","Address_On":"2560 Nora Road, Cottage Grove, WI, 53527","Phone":"608-226-4948","URL":"www.tn.cottagegrove.wi.gov","Symbol":6,"HazMtrls":"No","Street":"2560 Nora Rd","City":"Cottage Grove","Zipcode":53527,"Category":"Police Department"},"geometry":{"type":"Point","coordinates":[-89.198792,43.065351]}},{"type":"Feature","properties":{"FID":38,"OBJECTID":42,"Name":"Landmark Feed","Address_On":"2586 Coffeytown Rd, Cottage Grove, WI, 53527","Phone":"608-251-9010","URL":"landmark.coop","Symbol":13,"HazMtrls":"Yes","Street":"2586 Coffeytown Rd","City":"Cottage Grove","Zipcode":53527,"Category":"Livestock Food, Fertilizer"},"geometry":{"type":"Point","coordinates":[-89.201238,43.065298]}}]}